{"results":{"header":{"found":4,"rows":4,"start":0},"places":[{"id":"A839ALF5","link":{"rel":"self","uri":"https://api.apontador.com.br/v2/places/A839ALF5"},"name":"Gpaci Hospital do Cancer Infantil de Sorocaba","phones":["551521016555"],"urlApontador":"http://www.apontador.com.br/local/sp/sorocaba/hospitais_e_postos_de_saude/A839ALF5/gpaci_hospital_do_cancer_infantil_de_sorocaba.html","address":{"country":"BR","state":"SP","city":"SOROCABA","district":"Centro","street":"R Cel. Jose Pedro de Oliveira","number":"678"},"location":{"lat":"-23.5137","lng":"-47.4645"},"categories":[{"id":"5","name":"Hospitais e Postos de Saúde","link":{"rel":"self","uri":"https://api.apontador.com.br/v2/categories/5"},"subcategory":{"id":"5","name":"Hospitais"}}],"statistics":{"rating":"5.0","reviews":"19","thumbsUp":"12","thumbsDown":"2","checkins":"0","photos":"1"}},{"id":"H6B5E828","link":{"rel":"self","uri":"https://api.apontador.com.br/v2/places/H6B5E828"},"name":"Hospital Gpaci Sorocaba","phones":["551521016555"],"urlApontador":"http://www.apontador.com.br/local/sp/sorocaba/hospitais_e_postos_de_saude/H6B5E828/hospital_gpaci_sorocaba.html","address":{"country":"BR","state":"SP","city":"Sorocaba","district":"Jardim Paulistano","street":"Rua Antônio Miguel Pereira","number":"45","zipcode":"18030250"},"location":{"lat":"-23.5151","lng":"-47.46357"},"categories":[{"id":"5","name":"Hospitais e Postos de Saúde","link":{"rel":"self","uri":"https://api.apontador.com.br/v2/categories/5"},"subcategory":{"id":"99143","name":"Hospitais Particulares"}}],"statistics":{"rating":"0.0","reviews":"0","thumbsUp":"0","thumbsDown":"0","checkins":"0","photos":"0"}},{"id":"C40543281E2B5E2B57","link":{"rel":"self","uri":"https://api.apontador.com.br/v2/places/C40543281E2B5E2B57"},"name":"Luzia A G Paci","phones":["556233441261"],"urlApontador":"http://www.apontador.com.br/local/go/carmo_do_rio_verde/enderecos_empresariais/C40543281E2B5E2B57/luzia_a_g_paci.html","address":{"country":"BR","state":"GO","city":"Carmo do Rio Verde","district":"St Central","street":"Rua Jose Pereira da Silva 181 Qd  18 Lt 15","zipcode":"76335000"},"location":{"lat":"-15.49365","lng":"-49.68961"},"categories":[{"id":"51","name":"Endereços Empresariais","link":{"rel":"self","uri":"https://api.apontador.com.br/v2/categories/51"},"subcategory":{"id":"51","name":"Endereços Empresariais"}}],"statistics":{"rating":"0.0","reviews":"0","thumbsUp":"0","thumbsDown":"0","checkins":"0","photos":"0"},"tags":[{"value":"FRUTARIAS FRUTA FRUTAS HORTIFRUTI"}]},{"id":"C406399762534T5348","link":{"rel":"self","uri":"https://api.apontador.com.br/v2/places/C406399762534T5348"},"name":"G.Pasi Servicos Informaticos","urlApontador":"http://www.apontador.com.br/local/rs/uruguaiana/informatica/C406399762534T5348/g_pasi_servicos_informaticos.html","address":{"country":"BR","state":"RS","city":"Uruguaiana","district":"Bairro Bela Vista","street":"Rua Santana","number":"3415","zipcode":"97510471"},"location":{"lat":"-29.75683","lng":"-57.07809"},"categories":[{"id":"35","name":"Informática","link":{"rel":"self","uri":"https://api.apontador.com.br/v2/categories/35"},"subcategory":{"id":"35","name":"Serviços em Informática"}}],"statistics":{"rating":"0.0","reviews":"0","thumbsUp":"0","thumbsDown":"0","checkins":"0","photos":"0"}}]}}